{
	"bru":{"lat": 50.8465406, "city": "Brussels", "lng": 4.3516841, "country_code": "BE", "country": "Belgium"},
	"ymq":{"lat": 45.5224507, "city": "Montreal city", "lng": -73.5912827, "country_code": "CA", "country": "Canada"},
	"yyz":{"lat": 43.6529206, "city": "Toronto", "lng": -79.3849008, "country_code": "CA", "country": "Canada"},
	"bru":{"lat": 50.8465406, "city": "Brussels", "lng": 4.3516841, "country_code": "BE", "country": "Belgium"},
	"sof":{"lat": 42.6976983, "city": "Sofia", "lng": 23.3229756, "country_code": "BG", "country": "Bulgaria"},
	"ymq":{"lat": 45.5224507, "city": "Montreal city", "lng": -73.5912827, "country_code": "CA", "country": "Canada"},
	"yyz":{"lat": 43.6529206, "city": "Toronto", "lng": -79.3849008, "country_code": "CA", "country": "Canada"},
	"zrh":{"lat": 47.3685586, "city": "Zurich", "lng": 8.5404434, "country_code": "CH", "country": "Switzerland"},
	"ber":{"lat": 52.5198535, "city": "Berlin", "lng": 13.4385964, "country_code": "DE", "country": "Germany"},
	"dus":{"lat": 51.23841925, "city": "Dusseldorf", "lng": 6.78988617054216, "country_code": "DE", "country": "Germany"},
	"ham":{"lat": 53.5437641, "city": "Hamburg", "lng": 10.0099133, "country_code": "DE", "country": "Germany"},
	"muc":{"lat": 48.1372719, "city": "Munich", "lng": 11.5754815, "country_code": "DE", "country": "Germany"},
	"nue":{"lat": 49.4538501, "city": "Nuremberg", "lng": 11.0773238, "country_code": "DE", "country": "Germany"},
	"cph":{"lat": 55.6867239, "city": "Copenhagen", "lng": 12.570069, "country_code": "DK", "country": "Denmark"},
	"bcn":{"lat": 41.3870186, "city": "Barcelona", "lng": 2.1700437, "country_code": "ES", "country": "Spain"},
	"mad":{"lat": 40.52516075, "city": "Madrid", "lng": -3.77181653956588, "country_code": "ES", "country": "Spain"},
	"vlc":{"lat": 39.55773285, "city": "Valencia", "lng": -0.299777427158372, "country_code": "ES", "country": "Spain"},
	"bod":{"lat": 44.7987346, "city": "Bordeaux", "lng": -0.606101236558628, "country_code": "FR", "country": "France"},
	"mrs":{"lat": 43.2961743, "city": "Marseille", "lng": 5.3699525, "country_code": "FR", "country": "France"},
	"par":{"lat": 48.8588408, "city": "Paris", "lng": 2.32003465529896, "country_code": "FR", "country": "France"},
	"lon":{"lat": 51.5072759, "city": "London", "lng": -0.1276597, "country_code": "GB", "country": "United Kingdom"},
	"lpl":{"lat": 53.6475988, "city": "Southport", "lng": -3.0041751, "country_code": "GB", "country": "United Kingdom"},
	"ath":{"lat": 37.9841493, "city": "Athens", "lng": 23.7279843, "country_code": "GR", "country": "Greece"},
	"bud":{"lat": 47.4983815, "city": "Budapest", "lng": 19.0404707, "country_code": "HU", "country": "Hungary"},
	"dub":{"lat": 53.3493074, "city": "Dublin", "lng": -6.261175, "country_code": "IE", "country": "Ireland"},
	"mil":{"lat": 45.4666211, "city": "Milan", "lng": 9.1906166, "country_code": "IT", "country": "Italy"},
	"rom":{"lat": 41.8932575, "city": "Rome", "lng": 12.4830619, "country_code": "IT", "country": "Italy"},
	"tyo":{"lat": 35.6800712, "city": "Tokyo", "lng": 139.7685224, "country_code": "JP", "country": "Japan"},
	"mex":{"lat": 22.5000485, "city": "Mexico City", "lng": -100.0000375, "country_code": "MX", "country": "Mexico"},
	"ams":{"lat": 52.3710088, "city": "Amsterdam", "lng": 4.9001115, "country_code": "NL", "country": "The Netherlands"},
	"osl":{"lat": 59.9132694, "city": "Oslo", "lng": 10.7391112, "country_code": "NO", "country": "Norway"},
	"waw":{"lat": 52.2319237, "city": "Warsaw", "lng": 21.0067265, "country_code": "PL", "country": "Poland"},
	"lis":{"lat": 38.7128995, "city": "Lisbon", "lng": -9.1328948, "country_code": "PT", "country": "Portugal"},
	"buh":{"lat": 44.436139, "city": "Bucharest", "lng": 26.1027436, "country_code": "RO", "country": "Romania"},
	"sto":{"lat": 59.3307611, "city": "Stockholm", "lng": 18.0613099, "country_code": "SE", "country": "Sweden"},
	"bts":{"lat": 48.1535383, "city": "Bratislava", "lng": 17.1096711, "country_code": "SK", "country": "Slovakia"},
	"hrk":{"lat": 49.99026, "city": "Kharkiv", "lng": 36.2303797, "country_code": "UA", "country": "Ukraine"},
	"atl":{"lat": 33.7490987, "city": "Atlanta", "lng": -84.3901849, "country_code": "US", "country": "United States of America"},
	"bos":{"lat": 42.3604823, "city": "Boston", "lng": -71.0595678, "country_code": "US", "country": "United States of America"},
	"ord":{"lat": 41.8756208, "city": "Chicago", "lng": -87.6243706, "country_code": "US", "country": "United States of America"},
	"dfw":{"lat": 32.7801052, "city": "Dallas", "lng": -96.8000082, "country_code": "US", "country": "United States of America"},
	"den":{"lat": 39.7391536, "city": "Denver", "lng": -104.9847034, "country_code": "US", "country": "United States of America"},
	"iah":{"lat": 30.0209295, "city": "Houston", "lng": -95.3784161349338, "country_code": "US", "country": "United States of America"},
	"jax":{"lat": 30.3321838, "city": "Jacksonville", "lng": -81.655651, "country_code": "US", "country": "United States of America"},
	"mci":{"lat": 38.27312, "city": "Kansas", "lng": -98.5821872, "country_code": "US", "country": "United States of America"},
	"mia":{"lat": 25.7742658, "city": "Miami", "lng": -80.1936589, "country_code": "US", "country": "United States of America"},
	"msp":{"lat": 44.9772995, "city": "Minneapolis", "lng": -93.2654692, "country_code": "US", "country": "United States of America"},
	"mco":{"lat": 28.5421175, "city": "Orlando", "lng": -81.3790462, "country_code": "US", "country": "United States of America"},
	"phl":{"lat": 39.952335, "city": "Philadelphia", "lng": -75.163789, "country_code": "US", "country": "United States of America"},
	"smf":{"lat": 38.4840756, "city": "Sacramento", "lng": -121.0740108, "country_code": "US", "country": "United States of America"},
	"sea":{"lat": 47.6038321, "city": "Seattle", "lng": -122.3300624, "country_code": "US", "country": "United States of America"},
	"tpa":{"lat": 27.9477595, "city": "Tampa", "lng": -82.458444, "country_code": "US", "country": "United States of America"},
	"fra":{"lat": 50.12128335, "city": "Frankfurt am Main", "lng": 8.66188597160349, "country_code": "DE", "country": "Germany"},
	"lax":{"lat": 34.0501713, "city": "Los Angeles", "lng": -118.2419714, "country_code": "US", "country": "United States of America"},
	"jfk":{"lat": 40.7305991, "city": "New York City", "lng": -73.9865812, "country_code": "US", "country": "United States of America"},
	"san":{"lat": 32.7469869, "city": "San Diego", "lng": -117.21177, "country_code": "US", "country": "United States of America"},
	"sfo":{"lat": 37.7340974, "city": "San Francisco", "lng": -122.3912596, "country_code": "US", "country": "United States of America"},
	"sjc":{"lat": 37.3438502, "city": "San Jose", "lng": -121.8831349, "country_code": "US", "country": "United States of America"}
}
