{
	"ahbn":{"lat": 39.0437192, "city": "Ashburn", "lng": -77.4874899, "country_code": "US", "country": "United States of America"},
	"zvtm":{"lat": 50.8465406, "city": "Brussels", "lng": 4.3516841, "country_code": "BE", "country": "Belgium"},
	"chg":{"lat": 41.8756208, "city": "Chicago", "lng": -87.6243706, "country_code": "US", "country": "United States of America"},
	"dlls":{"lat": 32.7801052, "city": "Dallas", "lng": -96.8000082, "country_code": "US", "country": "United States of America"},
	"ffm":{"lat": 50.12128335, "city": "Frankfurt am Main", "lng": 8.66188597160349, "country_code": "DE", "country": "Germany"},
	"gnve":{"lat": 46.2017559, "city": "Geneva", "lng": 6.1466014, "country_code": "CH", "country": "Switzerland"},
	"hmb":{"lat": 53.5437641, "city": "Hamburg", "lng": 10.0099133, "country_code": "DE", "country": "Germany"},
	"ldn":{"lat": 51.5072759, "city": "London", "lng": -0.1276597, "country_code": "GB", "country": "United Kingdom"},
	"mchr":{"lat": 53.4791466, "city": "Manchester", "lng": -2.2447445, "country_code": "GB", "country": "United Kingdom"},
	"mchn":{"lat": 48.1372719, "city": "Munich", "lng": 11.5754815, "country_code": "DE", "country": "Germany"},
	"mdd":{"lat": 40.52516075, "city": "Madrid", "lng": -3.77181653956588, "country_code": "ES", "country": "Spain"},
	"miaf":{"lat": 25.7742658, "city": "Miami", "lng": -80.1936589, "country_code": "US", "country": "United States of America"},
	"mla":{"lat": 45.4666211, "city": "Milan", "lng": 9.1906166, "country_code": "IT", "country": "Italy"},
	"nntr":{"lat": 48.8944089, "city": "Nanterre", "lng": 2.23598052054243, "country_code": "FR", "country": "France"},
	"nyk":{"lat": 40.7305991, "city": "New York City", "lng": -73.9865812, "country_code": "US", "country": "United States of America"},
	"pra":{"lat": 50.084819, "city": "Prague", "lng": 14.4177247, "country_code": "CZ", "country": "Czech Republic"},
	"rt2":{"lat": 51.9228958, "city": "Rotterdam", "lng": 4.4631727, "country_code": "NL", "country": "The Netherlands"},
	"sjca":{"lat": 37.3438502, "city": "San Jose", "lng": -121.8831349, "country_code": "US", "country": "United States of America"},
	"wien":{"lat": 48.2084671, "city": "Vienna", "lng": 16.3730908, "country_code": "AT", "country": "Austria"},
	"wsw":{"lat": 52.2319237, "city": "Warsaw", "lng": 21.0067265, "country_code": "PL", "country": "Poland"},
	"nbg":{"lat": 49.4538501, "city": "Nuremberg", "lng": 11.0773238, "country_code": "DE", "country": "Germany"},
	"zrch":{"lat": 47.3685586, "city": "Zurich", "lng": 8.5404434, "country_code": "CH", "country": "Switzerland"}
}
